{
  "teams": [
    {
      "name": "Anacortes Composite",
      "city": "Anacortes Composite  Anacortes",
      "state": "WA",
      "zip": "98221",
      "geocoded": {
        "query": "98221",
        "formatted_address": "Anacortes, WA 98221, USA",
        "lat": 48.5013418,
        "lng": -122.6403231
      }
    },
    {
      "name": "Bainbridge Island",
      "city": "Bainbridge Island  Bainbridge Island",
      "state": "WA",
      "zip": "98110",
      "geocoded": {
        "query": "98110",
        "formatted_address": "Bainbridge Island, WA 98110, USA",
        "lat": 47.6458327,
        "lng": -122.5434407
      }
    },
    {
      "name": "Bellingham XCO",
      "city": "Bellingham XCO  Bellingham",
      "state": "WA",
      "zip": "98225",
      "geocoded": {
        "query": "98225",
        "formatted_address": "Bellingham, WA 98225, USA",
        "lat": 48.7562157,
        "lng": -122.4894588
      }
    },
    {
      "name": "Bonney Lake",
      "city": "Bonney Lake  Bonney Lake",
      "state": "WA",
      "zip": "98391",
      "geocoded": {
        "query": "98391",
        "formatted_address": "Bonney Lake, WA 98391, USA",
        "lat": 47.174049,
        "lng": -122.1702757
      }
    },
    {
      "name": "Capitol City MTB",
      "city": "Capitol City MTB  Olympia",
      "state": "WA",
      "zip": "98501",
      "geocoded": {
        "query": "98501",
        "formatted_address": "Olympia, WA 98501, USA",
        "lat": 46.9770179,
        "lng": -122.858419
      }
    },
    {
      "name": "Cedarcrest MTB",
      "city": "Cedarcrest MTB  Cedarcrest",
      "state": "WA",
      "zip": "98270",
      "geocoded": {
        "query": "98270",
        "formatted_address": "Marysville, WA 98270, USA",
        "lat": 48.0563616,
        "lng": -122.1492224
      }
    },
    {
      "name": "Edmonds Composite",
      "city": "Edmonds Composite  Edmonds",
      "state": "WA",
      "zip": "98020",
      "geocoded": {
        "query": "98020",
        "formatted_address": "Woodway, WA 98020, USA",
        "lat": 47.8040624,
        "lng": -122.3735496
      }
    },
    {
      "name": "Icicle Bicycle",
      "city": "Icicle Bicycle  Leavenworth",
      "state": "WA",
      "zip": "98826",
      "geocoded": {
        "query": "98826",
        "formatted_address": "Leavenworth, WA 98826, USA",
        "lat": 47.7827941,
        "lng": -120.9263261
      }
    },
    {
      "name": "Inland NW (Spokane)",
      "city": "Inland NW (Spokane)  Spokane",
      "state": "WA",
      "zip": "99202",
      "geocoded": {
        "query": "99202",
        "formatted_address": "Spokane, WA 99202, USA",
        "lat": 47.6568696,
        "lng": -117.3719973
      }
    },
    {
      "name": "Issaquah Composite",
      "city": "Issaquah Composite  Issaquah",
      "state": "WA",
      "zip": "98027",
      "geocoded": {
        "query": "98027",
        "formatted_address": "Issaquah, WA 98027, USA",
        "lat": 47.4925009,
        "lng": -121.9516338
      }
    },
    {
      "name": "Key Penninsula Composite",
      "city": "Key Penninsula Composite  Key Penninsula",
      "state": "WA",
      "zip": "98349",
      "geocoded": {
        "query": "98349",
        "formatted_address": "Lakebay, WA 98349, USA",
        "lat": 47.2648241,
        "lng": -122.7762912
      }
    },
    {
      "name": "Kittitas County Composite",
      "city": "Kittitas County Composite  Ellensberg",
      "state": "WA",
      "zip": "98926",
      "geocoded": {
        "query": "98926",
        "formatted_address": "Ellensburg, WA 98926, USA",
        "lat": 46.9965275,
        "lng": -120.5478652
      }
    },
    {
      "name": "Kootenai Composite",
      "city": "Kootenai Composite  Coeur d\\'Alene",
      "state": "ID",
      "zip": "83858",
      "geocoded": {
        "query": "83858",
        "formatted_address": "Twin Lakes, ID 83858, USA",
        "lat": 47.8409605,
        "lng": -116.8791817
      }
    },
    {
      "name": "Mercer Island",
      "city": "Mercer Island  Mercer Island",
      "state": "WA",
      "zip": "98040",
      "geocoded": {
        "query": "98040",
        "formatted_address": "Mercer Island, WA 98040, USA",
        "lat": 47.5824227,
        "lng": -122.2331227
      }
    },
    {
      "name": "Methow Valley Composite",
      "city": "Methow Valley Composite  Twisp",
      "state": "WA",
      "zip": "98856",
      "geocoded": {
        "query": "98856",
        "formatted_address": "Twisp, WA 98856, USA",
        "lat": 48.3481195,
        "lng": -120.0389298
      }
    },
    {
      "name": "Metro Seattle MTB",
      "city": "Metro Seattle MTB  Seattle",
      "state": "WA",
      "zip": "98102",
      "geocoded": {
        "query": "98102",
        "formatted_address": "Seattle, WA 98102, USA",
        "lat": 47.6338217,
        "lng": -122.3215448
      }
    },
    {
      "name": "Monroe Composite",
      "city": "Monroe Composite  Monroe",
      "state": "WA",
      "zip": "98272",
      "geocoded": {
        "query": "98272",
        "formatted_address": "Monroe, WA 98272, USA",
        "lat": 47.8627489,
        "lng": -121.8867603
      }
    },
    {
      "name": "Mt. Si MTB",
      "city": "Mt. Si MTB  North Bend",
      "state": "WA",
      "zip": "98045",
      "geocoded": {
        "query": "98045",
        "formatted_address": "North Bend, WA 98045, USA",
        "lat": 47.44083699999999,
        "lng": -121.6253065
      }
    },
    {
      "name": "Northshore Composite",
      "city": "Northshore Composite  Bothell",
      "state": "WA",
      "zip": "98011",
      "geocoded": {
        "query": "98011",
        "formatted_address": "Bothell, WA 98011, USA",
        "lat": 47.759038,
        "lng": -122.2021071
      }
    },
    {
      "name": "Palouse Composite",
      "city": "Palouse Composite  Moscow",
      "state": "ID",
      "zip": "83843",
      "geocoded": {
        "query": "83843",
        "formatted_address": "Moscow, ID 83843, USA",
        "lat": 46.7251492,
        "lng": -116.9667226
      }
    },
    {
      "name": "Pilchuck Composite",
      "city": "Pilchuck Composite  Pilchuck",
      "state": "WA",
      "zip": "98223",
      "geocoded": {
        "query": "98223",
        "formatted_address": "Arlington, WA 98223, USA",
        "lat": 48.19857930000001,
        "lng": -122.1250016
      }
    },
    {
      "name": "Snohomish Composite",
      "city": "Snohomish Composite  Snohomish",
      "state": "WA",
      "zip": "98290",
      "geocoded": {
        "query": "98290",
        "formatted_address": "Snohomish, WA 98290, USA",
        "lat": 47.957735,
        "lng": -122.0058344
      }
    },
    {
      "name": "Spokane Valley",
      "city": "Spokane Valley  Spokane",
      "state": "WA",
      "zip": "99206",
      "geocoded": {
        "query": "99206",
        "formatted_address": "Spokane, WA 99206, USA",
        "lat": 47.6098115,
        "lng": -117.2454313
      }
    },
    {
      "name": "Sultan-Sky MTB",
      "city": "Sultan-Sky MTB  Sultan",
      "state": "WA",
      "zip": "98294",
      "geocoded": {
        "query": "98294",
        "formatted_address": "Sultan, WA 98294, USA",
        "lat": 47.8927768,
        "lng": -121.7539283
      }
    },
    {
      "name": "Tahoma MTB",
      "city": "Tahoma MTB  Tahoma",
      "state": "WA",
      "zip": "98038",
      "geocoded": {
        "query": "98038",
        "formatted_address": "Maple Valley, WA 98038, USA",
        "lat": 47.4081994,
        "lng": -121.9774543
      }
    },
    {
      "name": "Three Rivers Devo",
      "city": "Three Rivers Devo  Kennewick",
      "state": "WA",
      "zip": "99338",
      "geocoded": {
        "query": "99338",
        "formatted_address": "Kennewick, WA 99338, USA",
        "lat": 46.1031257,
        "lng": -119.2960195
      }
    },
    {
      "name": "Wenatchee Devo",
      "city": "Wenatchee Devo  Wenatchee",
      "state": "WA",
      "zip": "98801",
      "geocoded": {
        "query": "98801",
        "formatted_address": "Wenatchee, WA 98801, USA",
        "lat": 47.3821918,
        "lng": -120.3761228
      }
    },
    {
      "name": "Yakima",
      "city": "Yakima  Yakima",
      "state": "WA",
      "zip": "98908",
      "geocoded": {
        "query": "98908",
        "formatted_address": "Yakima, WA 98908, USA",
        "lat": 46.6142844,
        "lng": -120.732328
      }
    }
  ],
  "races": [
    {
      "year": "2023",
      "season": "Spring",
      "date": "4/16",
      "city": "Gig Harbor",
      "venue": "360 Trails",
      "race_key": "Gig Harbor - 360 Trails - 2023-4-16",
      "geocoded": {
        "query": "360 Trails, Gig Harbor",
        "formatted_address": "360 Trail, Wauna, WA 98329, USA",
        "lat": 47.3941052,
        "lng": -122.6822641
      }
    },
    {
      "year": "2023",
      "season": "Spring",
      "date": "4/30",
      "city": "Ephrata",
      "venue": "Riverside State Park",
      "race_key": "Ephrata - Riverside State Park - 2023-4-30",
      "geocoded": {
        "query": "Riverside State Park, Ephrata",
        "formatted_address": "Ephrata, WA 98823, USA",
        "lat": 47.3176385,
        "lng": -119.5536491
      }
    },
    {
      "year": "2023",
      "season": "Spring",
      "date": "5/14",
      "city": "Spokane",
      "venue": "Riverside State Park",
      "race_key": "Spokane - Riverside State Park - 2023-5-14",
      "geocoded": {
        "query": "Riverside State Park, Spokane",
        "formatted_address": "Riverside State Park, 9711 W Charles Rd, Nine Mile Falls, WA 99026, USA",
        "lat": 47.7517885,
        "lng": -117.5436475
      }
    },
    {
      "year": "2023",
      "season": "Spring",
      "date": "6/04",
      "city": "Winthrop",
      "venue": "Liberty Bell High School",
      "race_key": "Winthrop - Liberty Bell High School - 2023-6-04",
      "geocoded": {
        "query": "Liberty Bell High School, Winthrop",
        "formatted_address": "18 Twin Lakes Rd, Winthrop, WA 98862, USA",
        "lat": 48.44225309999999,
        "lng": -120.169876
      }
    },
    {
      "year": "2023",
      "season": "Spring",
      "date": "6/11",
      "city": "Bellingham",
      "venue": "Galbraith",
      "race_key": "Bellingham - Galbraith - 2023-6-11",
      "geocoded": {
        "query": "Galbraith, Bellingham",
        "formatted_address": "3300 Squalicum Pkwy #200, Bellingham, WA 98225, USA",
        "lat": 48.771848,
        "lng": -122.4670294
      }
    },
    {
      "year": "2023",
      "season": "Fall",
      "date": "9/17",
      "city": "Port Gamble",
      "venue": "Port Gamble (Race + Camping)",
      "race_key": "Port Gamble - Port Gamble (Race + Camping) - 2023-9-17",
      "geocoded": {
        "query": "Port Gamble (Race + Camping), Port Gamble",
        "formatted_address": "Port Gamble, WA 98370, USA",
        "lat": 47.8542606,
        "lng": -122.5837581
      }
    },
    {
      "year": "2023",
      "season": "Fall",
      "date": "10/08",
      "city": "Wenatchee",
      "venue": "Squilchuck State Park",
      "race_key": "Wenatchee - Squilchuck State Park - 2023-10-08",
      "geocoded": {
        "query": "Squilchuck State Park, Wenatchee",
        "formatted_address": "Squilchuck State Pk, 2805 Mission Ridge Rd, Wenatchee, WA 98801, USA",
        "lat": 47.30906720000001,
        "lng": -120.3728069
      }
    },
    {
      "year": "2024",
      "season": "Spring",
      "date": "4/14",
      "city": "Spokane",
      "venue": "Riverside State Park",
      "race_key": "Spokane - Riverside State Park - 2024-4-14",
      "geocoded": {
        "query": "Riverside State Park, Spokane",
        "formatted_address": "Riverside State Park, 9711 W Charles Rd, Nine Mile Falls, WA 99026, USA",
        "lat": 47.7517885,
        "lng": -117.5436475
      }
    },
    {
      "year": "2024",
      "season": "Spring",
      "date": "4/28",
      "city": "Winthrop",
      "venue": "Liberty Bell High School",
      "race_key": "Winthrop - Liberty Bell High School - 2024-4-28",
      "geocoded": {
        "query": "Liberty Bell High School, Winthrop",
        "formatted_address": "18 Twin Lakes Rd, Winthrop, WA 98862, USA",
        "lat": 48.44225309999999,
        "lng": -120.169876
      }
    },
    {
      "year": "2024",
      "season": "Spring",
      "date": "5/05",
      "city": "Cle Elum",
      "venue": "Flying Horseshoe Ranch (Relay)",
      "race_key": "Cle Elum - Flying Horseshoe Ranch (Relay) - 2024-5-05",
      "geocoded": {
        "query": "Flying Horseshoe Ranch (Relay), Cle Elum",
        "formatted_address": "3190 Red Bridge Rd, Cle Elum, WA 98922, USA",
        "lat": 47.1912019,
        "lng": -120.817642
      }
    },
    {
      "year": "2024",
      "season": "Spring",
      "date": "5/19",
      "city": "Gig Harbor",
      "venue": "360 Trails",
      "race_key": "Gig Harbor - 360 Trails - 2024-5-19",
      "geocoded": {
        "query": "360 Trails, Gig Harbor",
        "formatted_address": "360 Trail, Wauna, WA 98329, USA",
        "lat": 47.3941052,
        "lng": -122.6822641
      }
    },
    {
      "year": "2024",
      "season": "Spring",
      "date": "6/02",
      "city": "Wenatchee",
      "venue": "Squilchuck State Park",
      "race_key": "Wenatchee - Squilchuck State Park - 2024-6-02",
      "geocoded": {
        "query": "Squilchuck State Park, Wenatchee",
        "formatted_address": "Squilchuck State Pk, 2805 Mission Ridge Rd, Wenatchee, WA 98801, USA",
        "lat": 47.30906720000001,
        "lng": -120.3728069
      }
    },
    {
      "year": "2024",
      "season": "Fall",
      "date": "9/29",
      "city": "Cle Elum",
      "venue": "Roslyn High School",
      "race_key": "Cle Elum - Roslyn High School - 2024-9-29",
      "geocoded": {
        "query": "Roslyn High School, Cle Elum",
        "formatted_address": "Roslyn Pl, Cle Elum, WA 98922, USA",
        "lat": 47.1984261,
        "lng": -120.951533
      }
    },
    {
      "year": "2024",
      "season": "Fall",
      "date": "10/13",
      "city": "Gig Harbor",
      "venue": "360 Trails",
      "race_key": "Gig Harbor - 360 Trails - 2024-10-13",
      "geocoded": {
        "query": "360 Trails, Gig Harbor",
        "formatted_address": "360 Trail, Wauna, WA 98329, USA",
        "lat": 47.3941052,
        "lng": -122.6822641
      }
    },
    {
      "year": "2025",
      "season": "Spring",
      "date": "4/13",
      "city": "Lakewood",
      "venue": "Fort Steilacoom",
      "race_key": "Lakewood - Fort Steilacoom - 2025-4-13",
      "geocoded": {
        "query": "Fort Steilacoom, Lakewood",
        "formatted_address": "9601 Steilacoom Blvd SW, Lakewood, WA 98498, USA",
        "lat": 47.1793059,
        "lng": -122.5633311
      }
    },
    {
      "year": "2025",
      "season": "Spring",
      "date": "4/27",
      "city": "Cle Elum",
      "venue": "Roslyn High School",
      "race_key": "Cle Elum - Roslyn High School - 2025-4-27",
      "geocoded": {
        "query": "Roslyn High School, Cle Elum",
        "formatted_address": "Roslyn Pl, Cle Elum, WA 98922, USA",
        "lat": 47.1984261,
        "lng": -120.951533
      }
    },
    {
      "year": "2025",
      "season": "Spring",
      "date": "5/4",
      "city": "Leavenworth",
      "venue": "Ski Hill",
      "race_key": "Leavenworth - Ski Hill - 2025-5-4",
      "geocoded": {
        "query": "Ski Hill, Leavenworth",
        "formatted_address": "Ski Hill Dr, Leavenworth, WA 98826, USA",
        "lat": 47.5979723,
        "lng": -120.6687228
      }
    },
    {
      "year": "2025",
      "season": "Spring",
      "date": "5/18",
      "city": "Winthrop",
      "venue": "Liberty Bell High School",
      "race_key": "Winthrop - Liberty Bell High School - 2025-5-18",
      "geocoded": {
        "query": "Liberty Bell High School, Winthrop",
        "formatted_address": "18 Twin Lakes Rd, Winthrop, WA 98862, USA",
        "lat": 48.44225309999999,
        "lng": -120.169876
      }
    },
    {
      "year": "2025",
      "season": "Spring",
      "date": "6/1",
      "city": "Gig Harbor",
      "venue": "360 Trails",
      "race_key": "Gig Harbor - 360 Trails - 2025-6-1",
      "geocoded": {
        "query": "360 Trails, Gig Harbor",
        "formatted_address": "360 Trail, Wauna, WA 98329, USA",
        "lat": 47.3941052,
        "lng": -122.6822641
      }
    },
    {
      "year": "2025",
      "season": "Fall",
      "date": "9/28",
      "city": "Lakewood",
      "venue": "Fort Steilacoom",
      "race_key": "Lakewood - Fort Steilacoom - 2025-9-28",
      "geocoded": {
        "query": "Fort Steilacoom, Lakewood",
        "formatted_address": "9601 Steilacoom Blvd SW, Lakewood, WA 98498, USA",
        "lat": 47.1793059,
        "lng": -122.5633311
      }
    },
    {
      "year": "2025",
      "season": "Fall",
      "date": "10/12",
      "city": "Twisp",
      "venue": "Loup Loup",
      "race_key": "Twisp - Loup Loup - 2025-10-12",
      "geocoded": {
        "query": "Loup Loup, Twisp",
        "formatted_address": "Loup Loup Ski Bowl, 97 FS, 4200 100 Road, Okanogan, WA 98840, USA",
        "lat": 48.3943616,
        "lng": -119.91097
      }
    }
  ],
  "distances": {
    "Anacortes Composite": {
      "races": {
        "Gig Harbor - 360 Trails - 2023-4-16": 267.2,
        "Ephrata - Riverside State Park - 2023-4-30": 489.0,
        "Spokane - Riverside State Park - 2023-5-14": 714.2,
        "Winthrop - Liberty Bell High School - 2023-6-04": 304.8,
        "Bellingham - Galbraith - 2023-6-11": 83.5,
        "Port Gamble - Port Gamble (Race + Camping) - 2023-9-17": 172.7,
        "Wenatchee - Squilchuck State Park - 2023-10-08": 366.2,
        "Spokane - Riverside State Park - 2024-4-14": 714.2,
        "Winthrop - Liberty Bell High School - 2024-4-28": 304.8,
        "Cle Elum - Flying Horseshoe Ranch (Relay) - 2024-5-05": 326.6,
        "Gig Harbor - 360 Trails - 2024-5-19": 267.2,
        "Wenatchee - Squilchuck State Park - 2024-6-02": 366.2,
        "Cle Elum - Roslyn High School - 2024-9-29": 312.4,
        "Gig Harbor - 360 Trails - 2024-10-13": 267.2,
        "Lakewood - Fort Steilacoom - 2025-4-13": 247.7,
        "Cle Elum - Roslyn High School - 2025-4-27": 312.4,
        "Leavenworth - Ski Hill - 2025-5-4": 302.8,
        "Winthrop - Liberty Bell High School - 2025-5-18": 304.8,
        "Gig Harbor - 360 Trails - 2025-6-1": 267.2,
        "Lakewood - Fort Steilacoom - 2025-9-28": 247.7,
        "Twisp - Loup Loup - 2025-10-12": 344.3
      },
      "total_miles": 6983.3
    },
    "Bainbridge Island": {
      "races": {
        "Gig Harbor - 360 Trails - 2023-4-16": 89.4,
        "Ephrata - Riverside State Park - 2023-4-30": 484.2,
        "Spokane - Riverside State Park - 2023-5-14": 709.5,
        "Winthrop - Liberty Bell High School - 2023-6-04": 411.8,
        "Bellingham - Galbraith - 2023-6-11": 208.5,
        "Port Gamble - Port Gamble (Race + Camping) - 2023-9-17": 35.5,
        "Wenatchee - Squilchuck State Park - 2023-10-08": 336.7,
        "Spokane - Riverside State Park - 2024-4-14": 709.5,
        "Winthrop - Liberty Bell High School - 2024-4-28": 411.8,
        "Cle Elum - Flying Horseshoe Ranch (Relay) - 2024-5-05": 321.9,
        "Gig Harbor - 360 Trails - 2024-5-19": 89.4,
        "Wenatchee - Squilchuck State Park - 2024-6-02": 336.7,
        "Cle Elum - Roslyn High School - 2024-9-29": 307.7,
        "Gig Harbor - 360 Trails - 2024-10-13": 89.4,
        "Lakewood - Fort Steilacoom - 2025-4-13": 126.0,
        "Cle Elum - Roslyn High School - 2025-4-27": 307.7,
        "Leavenworth - Ski Hill - 2025-5-4": 273.2,
        "Winthrop - Liberty Bell High School - 2025-5-18": 411.8,
        "Gig Harbor - 360 Trails - 2025-6-1": 89.4,
        "Lakewood - Fort Steilacoom - 2025-9-28": 126.0,
        "Twisp - Loup Loup - 2025-10-12": 451.4
      },
      "total_miles": 6327.6
    },
    "Bellingham XCO": {
      "races": {
        "Gig Harbor - 360 Trails - 2023-4-16": 285.9,
        "Ephrata - Riverside State Park - 2023-4-30": 507.6,
        "Spokane - Riverside State Park - 2023-5-14": 732.8,
        "Winthrop - Liberty Bell High School - 2023-6-04": 315.5,
        "Bellingham - Galbraith - 2023-6-11": 3.6,
        "Port Gamble - Port Gamble (Race + Camping) - 2023-9-17": 191.3,
        "Wenatchee - Squilchuck State Park - 2023-10-08": 384.9,
        "Spokane - Riverside State Park - 2024-4-14": 732.8,
        "Winthrop - Liberty Bell High School - 2024-4-28": 315.5,
        "Cle Elum - Flying Horseshoe Ranch (Relay) - 2024-5-05": 345.3,
        "Gig Harbor - 360 Trails - 2024-5-19": 285.9,
        "Wenatchee - Squilchuck State Park - 2024-6-02": 384.9,
        "Cle Elum - Roslyn High School - 2024-9-29": 331.1,
        "Gig Harbor - 360 Trails - 2024-10-13": 285.9,
        "Lakewood - Fort Steilacoom - 2025-4-13": 266.4,
        "Cle Elum - Roslyn High School - 2025-4-27": 331.1,
        "Leavenworth - Ski Hill - 2025-5-4": 321.4,
        "Winthrop - Liberty Bell High School - 2025-5-18": 315.5,
        "Gig Harbor - 360 Trails - 2025-6-1": 285.9,
        "Lakewood - Fort Steilacoom - 2025-9-28": 266.4,
        "Twisp - Loup Loup - 2025-10-12": 355.1
      },
      "total_miles": 7244.6
    },
    "Bonney Lake": {
      "races": {
        "Gig Harbor - 360 Trails - 2023-4-16": 69.3,
        "Ephrata - Riverside State Park - 2023-4-30": 367.8,
        "Spokane - Riverside State Park - 2023-5-14": 593.1,
        "Winthrop - Liberty Bell High School - 2023-6-04": 454.5,
        "Bellingham - Galbraith - 2023-6-11": 251.2,
        "Port Gamble - Port Gamble (Race + Camping) - 2023-9-17": 140.0,
        "Wenatchee - Squilchuck State Park - 2023-10-08": 421.3,
        "Spokane - Riverside State Park - 2024-4-14": 593.1,
        "Winthrop - Liberty Bell High School - 2024-4-28": 454.5,
        "Cle Elum - Flying Horseshoe Ranch (Relay) - 2024-5-05": 205.5,
        "Gig Harbor - 360 Trails - 2024-5-19": 69.3,
        "Wenatchee - Squilchuck State Park - 2024-6-02": 421.3,
        "Cle Elum - Roslyn High School - 2024-9-29": 191.3,
        "Gig Harbor - 360 Trails - 2024-10-13": 69.3,
        "Lakewood - Fort Steilacoom - 2025-4-13": 47.7,
        "Cle Elum - Roslyn High School - 2025-4-27": 191.3,
        "Leavenworth - Ski Hill - 2025-5-4": 289.6,
        "Winthrop - Liberty Bell High School - 2025-5-18": 454.5,
        "Gig Harbor - 360 Trails - 2025-6-1": 69.3,
        "Lakewood - Fort Steilacoom - 2025-9-28": 47.7,
        "Twisp - Loup Loup - 2025-10-12": 494.0
      },
      "total_miles": 5895.4
    },
    "Capitol City MTB": {
      "races": {
        "Gig Harbor - 360 Trails - 2023-4-16": 97.5,
        "Ephrata - Riverside State Park - 2023-4-30": 428.4,
        "Spokane - Riverside State Park - 2023-5-14": 653.6,
        "Winthrop - Liberty Bell High School - 2023-6-04": 511.0,
        "Bellingham - Galbraith - 2023-6-11": 307.7,
        "Port Gamble - Port Gamble (Race + Camping) - 2023-9-17": 168.2,
        "Wenatchee - Squilchuck State Park - 2023-10-08": 481.9,
        "Spokane - Riverside State Park - 2024-4-14": 653.6,
        "Winthrop - Liberty Bell High School - 2024-4-28": 511.0,
        "Cle Elum - Flying Horseshoe Ranch (Relay) - 2024-5-05": 266.1,
        "Gig Harbor - 360 Trails - 2024-5-19": 97.5,
        "Wenatchee - Squilchuck State Park - 2024-6-02": 481.9,
        "Cle Elum - Roslyn High School - 2024-9-29": 251.9,
        "Gig Harbor - 360 Trails - 2024-10-13": 97.5,
        "Lakewood - Fort Steilacoom - 2025-4-13": 50.6,
        "Cle Elum - Roslyn High School - 2025-4-27": 251.9,
        "Leavenworth - Ski Hill - 2025-5-4": 349.9,
        "Winthrop - Liberty Bell High School - 2025-5-18": 511.0,
        "Gig Harbor - 360 Trails - 2025-6-1": 97.5,
        "Lakewood - Fort Steilacoom - 2025-9-28": 50.6,
        "Twisp - Loup Loup - 2025-10-12": 550.6
      },
      "total_miles": 6870.2
    },
    "Cedarcrest MTB": {
      "races": {
        "Gig Harbor - 360 Trails - 2023-4-16": 177.5,
        "Ephrata - Riverside State Park - 2023-4-30": 399.2,
        "Spokane - Riverside State Park - 2023-5-14": 624.5,
        "Winthrop - Liberty Bell High School - 2023-6-04": 314.3,
        "Bellingham - Galbraith - 2023-6-11": 116.8,
        "Port Gamble - Port Gamble (Race + Camping) - 2023-9-17": 83.0,
        "Wenatchee - Squilchuck State Park - 2023-10-08": 270.6,
        "Spokane - Riverside State Park - 2024-4-14": 624.5,
        "Winthrop - Liberty Bell High School - 2024-4-28": 314.3,
        "Cle Elum - Flying Horseshoe Ranch (Relay) - 2024-5-05": 236.9,
        "Gig Harbor - 360 Trails - 2024-5-19": 177.5,
        "Wenatchee - Squilchuck State Park - 2024-6-02": 270.6,
        "Cle Elum - Roslyn High School - 2024-9-29": 222.7,
        "Gig Harbor - 360 Trails - 2024-10-13": 177.5,
        "Lakewood - Fort Steilacoom - 2025-4-13": 158.0,
        "Cle Elum - Roslyn High School - 2025-4-27": 222.7,
        "Leavenworth - Ski Hill - 2025-5-4": 207.1,
        "Winthrop - Liberty Bell High School - 2025-5-18": 314.3,
        "Gig Harbor - 360 Trails - 2025-6-1": 177.5,
        "Lakewood - Fort Steilacoom - 2025-9-28": 158.0,
        "Twisp - Loup Loup - 2025-10-12": 353.8
      },
      "total_miles": 5601.2
    },
    "Edmonds Composite": {
      "races": {
        "Gig Harbor - 360 Trails - 2023-4-16": 143.8,
        "Ephrata - Riverside State Park - 2023-4-30": 373.5,
        "Spokane - Riverside State Park - 2023-5-14": 598.8,
        "Winthrop - Liberty Bell High School - 2023-6-04": 362.4,
        "Bellingham - Galbraith - 2023-6-11": 159.1,
        "Port Gamble - Port Gamble (Race + Camping) - 2023-9-17": 29.6,
        "Wenatchee - Squilchuck State Park - 2023-10-08": 287.2,
        "Spokane - Riverside State Park - 2024-4-14": 598.8,
        "Winthrop - Liberty Bell High School - 2024-4-28": 362.4,
        "Cle Elum - Flying Horseshoe Ranch (Relay) - 2024-5-05": 211.2,
        "Gig Harbor - 360 Trails - 2024-5-19": 143.8,
        "Wenatchee - Squilchuck State Park - 2024-6-02": 287.2,
        "Cle Elum - Roslyn High School - 2024-9-29": 197.0,
        "Gig Harbor - 360 Trails - 2024-10-13": 143.8,
        "Lakewood - Fort Steilacoom - 2025-4-13": 124.3,
        "Cle Elum - Roslyn High School - 2025-4-27": 197.0,
        "Leavenworth - Ski Hill - 2025-5-4": 223.8,
        "Winthrop - Liberty Bell High School - 2025-5-18": 362.4,
        "Gig Harbor - 360 Trails - 2025-6-1": 143.8,
        "Lakewood - Fort Steilacoom - 2025-9-28": 124.3,
        "Twisp - Loup Loup - 2025-10-12": 401.9
      },
      "total_miles": 5476.2
    },
    "Icicle Bicycle": {
      "races": {
        "Gig Harbor - 360 Trails - 2023-4-16": 275.8,
        "Ephrata - Riverside State Park - 2023-4-30": 194.9,
        "Spokane - Riverside State Park - 2023-5-14": 409.9,
        "Winthrop - Liberty Bell High School - 2023-6-04": 275.4,
        "Bellingham - Galbraith - 2023-6-11": 272.2,
        "Port Gamble - Port Gamble (Race + Camping) - 2023-9-17": 207.9,
        "Wenatchee - Squilchuck State Park - 2023-10-08": 113.4,
        "Spokane - Riverside State Park - 2024-4-14": 409.9,
        "Winthrop - Liberty Bell High School - 2024-4-28": 275.4,
        "Cle Elum - Flying Horseshoe Ranch (Relay) - 2024-5-05": 335.2,
        "Gig Harbor - 360 Trails - 2024-5-19": 275.8,
        "Wenatchee - Squilchuck State Park - 2024-6-02": 113.4,
        "Cle Elum - Roslyn High School - 2024-9-29": 321.0,
        "Gig Harbor - 360 Trails - 2024-10-13": 275.8,
        "Lakewood - Fort Steilacoom - 2025-4-13": 256.3,
        "Cle Elum - Roslyn High School - 2025-4-27": 321.0,
        "Leavenworth - Ski Hill - 2025-5-4": 50.0,
        "Winthrop - Liberty Bell High School - 2025-5-18": 275.4,
        "Gig Harbor - 360 Trails - 2025-6-1": 275.8,
        "Lakewood - Fort Steilacoom - 2025-9-28": 256.3,
        "Twisp - Loup Loup - 2025-10-12": 279.5
      },
      "total_miles": 5470.5
    },
    "Inland NW (Spokane)": {
      "races": {
        "Gig Harbor - 360 Trails - 2023-4-16": 624.6,
        "Ephrata - Riverside State Park - 2023-4-30": 250.4,
        "Spokane - Riverside State Park - 2023-5-14": 32.8,
        "Winthrop - Liberty Bell High School - 2023-6-04": 365.6,
        "Bellingham - Galbraith - 2023-6-11": 729.3,
        "Port Gamble - Port Gamble (Race + Camping) - 2023-9-17": 695.3,
        "Wenatchee - Squilchuck State Park - 2023-10-08": 357.3,
        "Spokane - Riverside State Park - 2024-4-14": 32.8,
        "Winthrop - Liberty Bell High School - 2024-4-28": 365.6,
        "Cle Elum - Flying Horseshoe Ranch (Relay) - 2024-5-05": 402.5,
        "Gig Harbor - 360 Trails - 2024-5-19": 624.6,
        "Wenatchee - Squilchuck State Park - 2024-6-02": 357.3,
        "Cle Elum - Roslyn High School - 2024-9-29": 398.5,
        "Gig Harbor - 360 Trails - 2024-10-13": 624.6,
        "Lakewood - Fort Steilacoom - 2025-4-13": 605.1,
        "Cle Elum - Roslyn High School - 2025-4-27": 398.5,
        "Leavenworth - Ski Hill - 2025-5-4": 390.6,
        "Winthrop - Liberty Bell High School - 2025-5-18": 365.6,
        "Gig Harbor - 360 Trails - 2025-6-1": 624.6,
        "Lakewood - Fort Steilacoom - 2025-9-28": 605.1,
        "Twisp - Loup Loup - 2025-10-12": 330.2
      },
      "total_miles": 9180.8
    },
    "Issaquah Composite": {
      "races": {
        "Gig Harbor - 360 Trails - 2023-4-16": 108.4,
        "Ephrata - Riverside State Park - 2023-4-30": 307.4,
        "Spokane - Riverside State Park - 2023-5-14": 532.6,
        "Winthrop - Liberty Bell High School - 2023-6-04": 433.8,
        "Bellingham - Galbraith - 2023-6-11": 230.5,
        "Port Gamble - Port Gamble (Race + Camping) - 2023-9-17": 179.1,
        "Wenatchee - Squilchuck State Park - 2023-10-08": 360.9,
        "Spokane - Riverside State Park - 2024-4-14": 532.6,
        "Winthrop - Liberty Bell High School - 2024-4-28": 433.8,
        "Cle Elum - Flying Horseshoe Ranch (Relay) - 2024-5-05": 145.1,
        "Gig Harbor - 360 Trails - 2024-5-19": 108.4,
        "Wenatchee - Squilchuck State Park - 2024-6-02": 360.9,
        "Cle Elum - Roslyn High School - 2024-9-29": 130.9,
        "Gig Harbor - 360 Trails - 2024-10-13": 108.4,
        "Lakewood - Fort Steilacoom - 2025-4-13": 88.9,
        "Cle Elum - Roslyn High School - 2025-4-27": 130.9,
        "Leavenworth - Ski Hill - 2025-5-4": 247.7,
        "Winthrop - Liberty Bell High School - 2025-5-18": 433.8,
        "Gig Harbor - 360 Trails - 2025-6-1": 108.4,
        "Lakewood - Fort Steilacoom - 2025-9-28": 88.9,
        "Twisp - Loup Loup - 2025-10-12": 514.8
      },
      "total_miles": 5586.4
    },
    "Key Penninsula Composite": {
      "races": {
        "Gig Harbor - 360 Trails - 2023-4-16": 21.5,
        "Ephrata - Riverside State Park - 2023-4-30": 424.3,
        "Spokane - Riverside State Park - 2023-5-14": 649.5,
        "Winthrop - Liberty Bell High School - 2023-6-04": 506.9,
        "Bellingham - Galbraith - 2023-6-11": 303.6,
        "Port Gamble - Port Gamble (Race + Camping) - 2023-9-17": 95.4,
        "Wenatchee - Squilchuck State Park - 2023-10-08": 477.7,
        "Spokane - Riverside State Park - 2024-4-14": 649.5,
        "Winthrop - Liberty Bell High School - 2024-4-28": 506.9,
        "Cle Elum - Flying Horseshoe Ranch (Relay) - 2024-5-05": 261.9,
        "Gig Harbor - 360 Trails - 2024-5-19": 21.5,
        "Wenatchee - Squilchuck State Park - 2024-6-02": 477.7,
        "Cle Elum - Roslyn High School - 2024-9-29": 247.7,
        "Gig Harbor - 360 Trails - 2024-10-13": 21.5,
        "Lakewood - Fort Steilacoom - 2025-4-13": 66.0,
        "Cle Elum - Roslyn High School - 2025-4-27": 247.7,
        "Leavenworth - Ski Hill - 2025-5-4": 345.8,
        "Winthrop - Liberty Bell High School - 2025-5-18": 506.9,
        "Gig Harbor - 360 Trails - 2025-6-1": 21.5,
        "Lakewood - Fort Steilacoom - 2025-9-28": 66.0,
        "Twisp - Loup Loup - 2025-10-12": 546.4
      },
      "total_miles": 6465.7
    },
    "Kittitas County Composite": {
      "races": {
        "Gig Harbor - 360 Trails - 2023-4-16": 276.7,
        "Ephrata - Riverside State Park - 2023-4-30": 128.6,
        "Spokane - Riverside State Park - 2023-5-14": 353.9,
        "Winthrop - Liberty Bell High School - 2023-6-04": 355.7,
        "Bellingham - Galbraith - 2023-6-11": 381.4,
        "Port Gamble - Port Gamble (Race + Camping) - 2023-9-17": 347.4,
        "Wenatchee - Squilchuck State Park - 2023-10-08": 182.1,
        "Spokane - Riverside State Park - 2024-4-14": 353.9,
        "Winthrop - Liberty Bell High School - 2024-4-28": 355.7,
        "Cle Elum - Flying Horseshoe Ranch (Relay) - 2024-5-05": 45.0,
        "Gig Harbor - 360 Trails - 2024-5-19": 276.7,
        "Wenatchee - Squilchuck State Park - 2024-6-02": 182.1,
        "Cle Elum - Roslyn High School - 2024-9-29": 50.6,
        "Gig Harbor - 360 Trails - 2024-10-13": 276.7,
        "Lakewood - Fort Steilacoom - 2025-4-13": 257.2,
        "Cle Elum - Roslyn High School - 2025-4-27": 50.6,
        "Leavenworth - Ski Hill - 2025-5-4": 215.3,
        "Winthrop - Liberty Bell High School - 2025-5-18": 355.7,
        "Gig Harbor - 360 Trails - 2025-6-1": 276.7,
        "Lakewood - Fort Steilacoom - 2025-9-28": 257.2,
        "Twisp - Loup Loup - 2025-10-12": 336.1
      },
      "total_miles": 5315.3
    },
    "Kootenai Composite": {
      "races": {
        "Gig Harbor - 360 Trails - 2023-4-16": 687.0,
        "Ephrata - Riverside State Park - 2023-4-30": 312.9,
        "Spokane - Riverside State Park - 2023-5-14": 77.7,
        "Winthrop - Liberty Bell High School - 2023-6-04": 428.0,
        "Bellingham - Galbraith - 2023-6-11": 791.7,
        "Port Gamble - Port Gamble (Race + Camping) - 2023-9-17": 757.7,
        "Wenatchee - Squilchuck State Park - 2023-10-08": 419.7,
        "Spokane - Riverside State Park - 2024-4-14": 77.7,
        "Winthrop - Liberty Bell High School - 2024-4-28": 428.0,
        "Cle Elum - Flying Horseshoe Ranch (Relay) - 2024-5-05": 464.9,
        "Gig Harbor - 360 Trails - 2024-5-19": 687.0,
        "Wenatchee - Squilchuck State Park - 2024-6-02": 419.7,
        "Cle Elum - Roslyn High School - 2024-9-29": 460.9,
        "Gig Harbor - 360 Trails - 2024-10-13": 687.0,
        "Lakewood - Fort Steilacoom - 2025-4-13": 667.5,
        "Cle Elum - Roslyn High School - 2025-4-27": 460.9,
        "Leavenworth - Ski Hill - 2025-5-4": 453.0,
        "Winthrop - Liberty Bell High School - 2025-5-18": 428.0,
        "Gig Harbor - 360 Trails - 2025-6-1": 687.0,
        "Lakewood - Fort Steilacoom - 2025-9-28": 667.5,
        "Twisp - Loup Loup - 2025-10-12": 392.6
      },
      "total_miles": 10456.3
    },
    "Mercer Island": {
      "races": {
        "Gig Harbor - 360 Trails - 2023-4-16": 108.9,
        "Ephrata - Riverside State Park - 2023-4-30": 330.8,
        "Spokane - Riverside State Park - 2023-5-14": 556.1,
        "Winthrop - Liberty Bell High School - 2023-6-04": 394.3,
        "Bellingham - Galbraith - 2023-6-11": 191.0,
        "Port Gamble - Port Gamble (Race + Camping) - 2023-9-17": 67.7,
        "Wenatchee - Squilchuck State Park - 2023-10-08": 292.9,
        "Spokane - Riverside State Park - 2024-4-14": 556.1,
        "Winthrop - Liberty Bell High School - 2024-4-28": 394.3,
        "Cle Elum - Flying Horseshoe Ranch (Relay) - 2024-5-05": 168.5,
        "Gig Harbor - 360 Trails - 2024-5-19": 108.9,
        "Wenatchee - Squilchuck State Park - 2024-6-02": 292.9,
        "Cle Elum - Roslyn High School - 2024-9-29": 154.3,
        "Gig Harbor - 360 Trails - 2024-10-13": 108.9,
        "Lakewood - Fort Steilacoom - 2025-4-13": 89.4,
        "Cle Elum - Roslyn High School - 2025-4-27": 154.3,
        "Leavenworth - Ski Hill - 2025-5-4": 229.4,
        "Winthrop - Liberty Bell High School - 2025-5-18": 394.3,
        "Gig Harbor - 360 Trails - 2025-6-1": 108.9,
        "Lakewood - Fort Steilacoom - 2025-9-28": 89.4,
        "Twisp - Loup Loup - 2025-10-12": 433.9
      },
      "total_miles": 5225.6
    },
    "Methow Valley Composite": {
      "races": {
        "Gig Harbor - 360 Trails - 2023-4-16": 509.6,
        "Ephrata - Riverside State Park - 2023-4-30": 221.9,
        "Spokane - Riverside State Park - 2023-5-14": 343.6,
        "Winthrop - Liberty Bell High School - 2023-6-04": 21.0,
        "Bellingham - Galbraith - 2023-6-11": 335.4,
        "Port Gamble - Port Gamble (Race + Camping) - 2023-9-17": 415.1,
        "Wenatchee - Squilchuck State Park - 2023-10-08": 192.5,
        "Spokane - Riverside State Park - 2024-4-14": 343.6,
        "Winthrop - Liberty Bell High School - 2024-4-28": 21.0,
        "Cle Elum - Flying Horseshoe Ranch (Relay) - 2024-5-05": 391.9,
        "Gig Harbor - 360 Trails - 2024-5-19": 509.6,
        "Wenatchee - Squilchuck State Park - 2024-6-02": 192.5,
        "Cle Elum - Roslyn High School - 2024-9-29": 388.0,
        "Gig Harbor - 360 Trails - 2024-10-13": 509.6,
        "Lakewood - Fort Steilacoom - 2025-4-13": 490.1,
        "Cle Elum - Roslyn High School - 2025-4-27": 388.0,
        "Leavenworth - Ski Hill - 2025-5-4": 209.5,
        "Winthrop - Liberty Bell High School - 2025-5-18": 21.0,
        "Gig Harbor - 360 Trails - 2025-6-1": 509.6,
        "Lakewood - Fort Steilacoom - 2025-9-28": 490.1,
        "Twisp - Loup Loup - 2025-10-12": 20.5
      },
      "total_miles": 6524.4
    },
    "Metro Seattle MTB": {
      "races": {
        "Gig Harbor - 360 Trails - 2023-4-16": 118.2,
        "Ephrata - Riverside State Park - 2023-4-30": 347.9,
        "Spokane - Riverside State Park - 2023-5-14": 573.1,
        "Winthrop - Liberty Bell High School - 2023-6-04": 380.1,
        "Bellingham - Galbraith - 2023-6-11": 176.8,
        "Port Gamble - Port Gamble (Race + Camping) - 2023-9-17": 58.2,
        "Wenatchee - Squilchuck State Park - 2023-10-08": 295.2,
        "Spokane - Riverside State Park - 2024-4-14": 573.1,
        "Winthrop - Liberty Bell High School - 2024-4-28": 380.1,
        "Cle Elum - Flying Horseshoe Ranch (Relay) - 2024-5-05": 185.6,
        "Gig Harbor - 360 Trails - 2024-5-19": 118.2,
        "Wenatchee - Squilchuck State Park - 2024-6-02": 295.2,
        "Cle Elum - Roslyn High School - 2024-9-29": 171.3,
        "Gig Harbor - 360 Trails - 2024-10-13": 118.2,
        "Lakewood - Fort Steilacoom - 2025-4-13": 98.7,
        "Cle Elum - Roslyn High School - 2025-4-27": 171.3,
        "Leavenworth - Ski Hill - 2025-5-4": 231.7,
        "Winthrop - Liberty Bell High School - 2025-5-18": 380.1,
        "Gig Harbor - 360 Trails - 2025-6-1": 118.2,
        "Lakewood - Fort Steilacoom - 2025-9-28": 98.7,
        "Twisp - Loup Loup - 2025-10-12": 419.7
      },
      "total_miles": 5309.6
    },
    "Monroe Composite": {
      "races": {
        "Gig Harbor - 360 Trails - 2023-4-16": 164.6,
        "Ephrata - Riverside State Park - 2023-4-30": 307.2,
        "Spokane - Riverside State Park - 2023-5-14": 611.5,
        "Winthrop - Liberty Bell High School - 2023-6-04": 364.2,
        "Bellingham - Galbraith - 2023-6-11": 160.9,
        "Port Gamble - Port Gamble (Race + Camping) - 2023-9-17": 96.6,
        "Wenatchee - Squilchuck State Park - 2023-10-08": 225.7,
        "Spokane - Riverside State Park - 2024-4-14": 611.5,
        "Winthrop - Liberty Bell High School - 2024-4-28": 364.2,
        "Cle Elum - Flying Horseshoe Ranch (Relay) - 2024-5-05": 224.0,
        "Gig Harbor - 360 Trails - 2024-5-19": 164.6,
        "Wenatchee - Squilchuck State Park - 2024-6-02": 225.7,
        "Cle Elum - Roslyn High School - 2024-9-29": 209.7,
        "Gig Harbor - 360 Trails - 2024-10-13": 164.6,
        "Lakewood - Fort Steilacoom - 2025-4-13": 145.0,
        "Cle Elum - Roslyn High School - 2025-4-27": 209.7,
        "Leavenworth - Ski Hill - 2025-5-4": 162.3,
        "Winthrop - Liberty Bell High School - 2025-5-18": 364.2,
        "Gig Harbor - 360 Trails - 2025-6-1": 164.6,
        "Lakewood - Fort Steilacoom - 2025-9-28": 145.0,
        "Twisp - Loup Loup - 2025-10-12": 391.8
      },
      "total_miles": 5477.6
    },
    "Mt. Si MTB": {
      "races": {
        "Gig Harbor - 360 Trails - 2023-4-16": 141.4,
        "Ephrata - Riverside State Park - 2023-4-30": 266.4,
        "Spokane - Riverside State Park - 2023-5-14": 491.6,
        "Winthrop - Liberty Bell High School - 2023-6-04": 493.5,
        "Bellingham - Galbraith - 2023-6-11": 246.1,
        "Port Gamble - Port Gamble (Race + Camping) - 2023-9-17": 212.1,
        "Wenatchee - Squilchuck State Park - 2023-10-08": 319.8,
        "Spokane - Riverside State Park - 2024-4-14": 491.6,
        "Winthrop - Liberty Bell High School - 2024-4-28": 493.5,
        "Cle Elum - Flying Horseshoe Ranch (Relay) - 2024-5-05": 104.0,
        "Gig Harbor - 360 Trails - 2024-5-19": 141.4,
        "Wenatchee - Squilchuck State Park - 2024-6-02": 319.8,
        "Cle Elum - Roslyn High School - 2024-9-29": 89.8,
        "Gig Harbor - 360 Trails - 2024-10-13": 141.4,
        "Lakewood - Fort Steilacoom - 2025-4-13": 121.9,
        "Cle Elum - Roslyn High School - 2025-4-27": 89.8,
        "Leavenworth - Ski Hill - 2025-5-4": 263.3,
        "Winthrop - Liberty Bell High School - 2025-5-18": 493.5,
        "Gig Harbor - 360 Trails - 2025-6-1": 141.4,
        "Lakewood - Fort Steilacoom - 2025-9-28": 121.9,
        "Twisp - Loup Loup - 2025-10-12": 473.8
      },
      "total_miles": 5658.0
    },
    "Northshore Composite": {
      "races": {
        "Gig Harbor - 360 Trails - 2023-4-16": 129.4,
        "Ephrata - Riverside State Park - 2023-4-30": 351.1,
        "Spokane - Riverside State Park - 2023-5-14": 576.3,
        "Winthrop - Liberty Bell High School - 2023-6-04": 364.9,
        "Bellingham - Galbraith - 2023-6-11": 161.6,
        "Port Gamble - Port Gamble (Race + Camping) - 2023-9-17": 62.7,
        "Wenatchee - Squilchuck State Park - 2023-10-08": 263.2,
        "Spokane - Riverside State Park - 2024-4-14": 576.3,
        "Winthrop - Liberty Bell High School - 2024-4-28": 364.9,
        "Cle Elum - Flying Horseshoe Ranch (Relay) - 2024-5-05": 188.8,
        "Gig Harbor - 360 Trails - 2024-5-19": 129.4,
        "Wenatchee - Squilchuck State Park - 2024-6-02": 263.2,
        "Cle Elum - Roslyn High School - 2024-9-29": 174.6,
        "Gig Harbor - 360 Trails - 2024-10-13": 129.4,
        "Lakewood - Fort Steilacoom - 2025-4-13": 109.9,
        "Cle Elum - Roslyn High School - 2025-4-27": 174.6,
        "Leavenworth - Ski Hill - 2025-5-4": 199.8,
        "Winthrop - Liberty Bell High School - 2025-5-18": 364.9,
        "Gig Harbor - 360 Trails - 2025-6-1": 129.4,
        "Lakewood - Fort Steilacoom - 2025-9-28": 109.9,
        "Twisp - Loup Loup - 2025-10-12": 404.5
      },
      "total_miles": 5228.9
    },
    "Palouse Composite": {
      "races": {
        "Gig Harbor - 360 Trails - 2023-4-16": 656.0,
        "Ephrata - Riverside State Park - 2023-4-30": 323.2,
        "Spokane - Riverside State Park - 2023-5-14": 180.7,
        "Winthrop - Liberty Bell High School - 2023-6-04": 503.7,
        "Bellingham - Galbraith - 2023-6-11": 760.7,
        "Port Gamble - Port Gamble (Race + Camping) - 2023-9-17": 726.7,
        "Wenatchee - Squilchuck State Park - 2023-10-08": 430.2,
        "Spokane - Riverside State Park - 2024-4-14": 180.7,
        "Winthrop - Liberty Bell High School - 2024-4-28": 503.7,
        "Cle Elum - Flying Horseshoe Ranch (Relay) - 2024-5-05": 433.9,
        "Gig Harbor - 360 Trails - 2024-5-19": 656.0,
        "Wenatchee - Squilchuck State Park - 2024-6-02": 430.2,
        "Cle Elum - Roslyn High School - 2024-9-29": 429.9,
        "Gig Harbor - 360 Trails - 2024-10-13": 656.0,
        "Lakewood - Fort Steilacoom - 2025-4-13": 636.5,
        "Cle Elum - Roslyn High School - 2025-4-27": 429.9,
        "Leavenworth - Ski Hill - 2025-5-4": 463.4,
        "Winthrop - Liberty Bell High School - 2025-5-18": 503.7,
        "Gig Harbor - 360 Trails - 2025-6-1": 656.0,
        "Lakewood - Fort Steilacoom - 2025-9-28": 636.5,
        "Twisp - Loup Loup - 2025-10-12": 468.2
      },
      "total_miles": 10665.7
    },
    "Pilchuck Composite": {
      "races": {
        "Gig Harbor - 360 Trails - 2023-4-16": 201.5,
        "Ephrata - Riverside State Park - 2023-4-30": 423.2,
        "Spokane - Riverside State Park - 2023-5-14": 648.5,
        "Winthrop - Liberty Bell High School - 2023-6-04": 289.5,
        "Bellingham - Galbraith - 2023-6-11": 102.6,
        "Port Gamble - Port Gamble (Race + Camping) - 2023-9-17": 107.0,
        "Wenatchee - Squilchuck State Park - 2023-10-08": 291.0,
        "Spokane - Riverside State Park - 2024-4-14": 648.5,
        "Winthrop - Liberty Bell High School - 2024-4-28": 289.5,
        "Cle Elum - Flying Horseshoe Ranch (Relay) - 2024-5-05": 260.9,
        "Gig Harbor - 360 Trails - 2024-5-19": 201.5,
        "Wenatchee - Squilchuck State Park - 2024-6-02": 291.0,
        "Cle Elum - Roslyn High School - 2024-9-29": 246.7,
        "Gig Harbor - 360 Trails - 2024-10-13": 201.5,
        "Lakewood - Fort Steilacoom - 2025-4-13": 182.0,
        "Cle Elum - Roslyn High School - 2025-4-27": 246.7,
        "Leavenworth - Ski Hill - 2025-5-4": 227.6,
        "Winthrop - Liberty Bell High School - 2025-5-18": 289.5,
        "Gig Harbor - 360 Trails - 2025-6-1": 201.5,
        "Lakewood - Fort Steilacoom - 2025-9-28": 182.0,
        "Twisp - Loup Loup - 2025-10-12": 329.1
      },
      "total_miles": 5861.5
    },
    "Snohomish Composite": {
      "races": {
        "Gig Harbor - 360 Trails - 2023-4-16": 168.9,
        "Ephrata - Riverside State Park - 2023-4-30": 390.7,
        "Spokane - Riverside State Park - 2023-5-14": 615.9,
        "Winthrop - Liberty Bell High School - 2023-6-04": 334.0,
        "Bellingham - Galbraith - 2023-6-11": 146.3,
        "Port Gamble - Port Gamble (Race + Camping) - 2023-9-17": 92.0,
        "Wenatchee - Squilchuck State Park - 2023-10-08": 250.0,
        "Spokane - Riverside State Park - 2024-4-14": 615.9,
        "Winthrop - Liberty Bell High School - 2024-4-28": 334.0,
        "Cle Elum - Flying Horseshoe Ranch (Relay) - 2024-5-05": 228.3,
        "Gig Harbor - 360 Trails - 2024-5-19": 168.9,
        "Wenatchee - Squilchuck State Park - 2024-6-02": 250.0,
        "Cle Elum - Roslyn High School - 2024-9-29": 214.1,
        "Gig Harbor - 360 Trails - 2024-10-13": 168.9,
        "Lakewood - Fort Steilacoom - 2025-4-13": 149.4,
        "Cle Elum - Roslyn High School - 2025-4-27": 214.1,
        "Leavenworth - Ski Hill - 2025-5-4": 186.5,
        "Winthrop - Liberty Bell High School - 2025-5-18": 334.0,
        "Gig Harbor - 360 Trails - 2025-6-1": 168.9,
        "Lakewood - Fort Steilacoom - 2025-9-28": 149.4,
        "Twisp - Loup Loup - 2025-10-12": 373.6
      },
      "total_miles": 5553.9
    },
    "Spokane Valley": {
      "races": {
        "Gig Harbor - 360 Trails - 2023-4-16": 640.5,
        "Ephrata - Riverside State Park - 2023-4-30": 266.4,
        "Spokane - Riverside State Park - 2023-5-14": 48.8,
        "Winthrop - Liberty Bell High School - 2023-6-04": 381.6,
        "Bellingham - Galbraith - 2023-6-11": 745.3,
        "Port Gamble - Port Gamble (Race + Camping) - 2023-9-17": 711.3,
        "Wenatchee - Squilchuck State Park - 2023-10-08": 373.3,
        "Spokane - Riverside State Park - 2024-4-14": 48.8,
        "Winthrop - Liberty Bell High School - 2024-4-28": 381.6,
        "Cle Elum - Flying Horseshoe Ranch (Relay) - 2024-5-05": 418.4,
        "Gig Harbor - 360 Trails - 2024-5-19": 640.5,
        "Wenatchee - Squilchuck State Park - 2024-6-02": 373.3,
        "Cle Elum - Roslyn High School - 2024-9-29": 414.4,
        "Gig Harbor - 360 Trails - 2024-10-13": 640.5,
        "Lakewood - Fort Steilacoom - 2025-4-13": 621.0,
        "Cle Elum - Roslyn High School - 2025-4-27": 414.4,
        "Leavenworth - Ski Hill - 2025-5-4": 406.5,
        "Winthrop - Liberty Bell High School - 2025-5-18": 381.6,
        "Gig Harbor - 360 Trails - 2025-6-1": 640.5,
        "Lakewood - Fort Steilacoom - 2025-9-28": 621.0,
        "Twisp - Loup Loup - 2025-10-12": 346.1
      },
      "total_miles": 9515.7
    },
    "Sultan-Sky MTB": {
      "races": {
        "Gig Harbor - 360 Trails - 2023-4-16": 182.1,
        "Ephrata - Riverside State Park - 2023-4-30": 306.9,
        "Spokane - Riverside State Park - 2023-5-14": 521.9,
        "Winthrop - Liberty Bell High School - 2023-6-04": 387.4,
        "Bellingham - Galbraith - 2023-6-11": 178.4,
        "Port Gamble - Port Gamble (Race + Camping) - 2023-9-17": 114.2,
        "Wenatchee - Squilchuck State Park - 2023-10-08": 225.4,
        "Spokane - Riverside State Park - 2024-4-14": 521.9,
        "Winthrop - Liberty Bell High School - 2024-4-28": 387.4,
        "Cle Elum - Flying Horseshoe Ranch (Relay) - 2024-5-05": 241.5,
        "Gig Harbor - 360 Trails - 2024-5-19": 182.1,
        "Wenatchee - Squilchuck State Park - 2024-6-02": 225.4,
        "Cle Elum - Roslyn High School - 2024-9-29": 227.3,
        "Gig Harbor - 360 Trails - 2024-10-13": 182.1,
        "Lakewood - Fort Steilacoom - 2025-4-13": 162.6,
        "Cle Elum - Roslyn High School - 2025-4-27": 227.3,
        "Leavenworth - Ski Hill - 2025-5-4": 161.9,
        "Winthrop - Liberty Bell High School - 2025-5-18": 387.4,
        "Gig Harbor - 360 Trails - 2025-6-1": 182.1,
        "Lakewood - Fort Steilacoom - 2025-9-28": 162.6,
        "Twisp - Loup Loup - 2025-10-12": 391.5
      },
      "total_miles": 5559.0
    },
    "Tahoma MTB": {
      "races": {
        "Gig Harbor - 360 Trails - 2023-4-16": 96.2,
        "Ephrata - Riverside State Park - 2023-4-30": 312.4,
        "Spokane - Riverside State Park - 2023-5-14": 537.6,
        "Winthrop - Liberty Bell High School - 2023-6-04": 424.7,
        "Bellingham - Galbraith - 2023-6-11": 221.4,
        "Port Gamble - Port Gamble (Race + Camping) - 2023-9-17": 166.9,
        "Wenatchee - Squilchuck State Park - 2023-10-08": 365.9,
        "Spokane - Riverside State Park - 2024-4-14": 537.6,
        "Winthrop - Liberty Bell High School - 2024-4-28": 424.7,
        "Cle Elum - Flying Horseshoe Ranch (Relay) - 2024-5-05": 150.1,
        "Gig Harbor - 360 Trails - 2024-5-19": 96.2,
        "Wenatchee - Squilchuck State Park - 2024-6-02": 365.9,
        "Cle Elum - Roslyn High School - 2024-9-29": 135.9,
        "Gig Harbor - 360 Trails - 2024-10-13": 96.2,
        "Lakewood - Fort Steilacoom - 2025-4-13": 76.6,
        "Cle Elum - Roslyn High School - 2025-4-27": 135.9,
        "Leavenworth - Ski Hill - 2025-5-4": 259.9,
        "Winthrop - Liberty Bell High School - 2025-5-18": 424.7,
        "Gig Harbor - 360 Trails - 2025-6-1": 96.2,
        "Lakewood - Fort Steilacoom - 2025-9-28": 76.6,
        "Twisp - Loup Loup - 2025-10-12": 519.8
      },
      "total_miles": 5521.4
    },
    "Three Rivers Devo": {
      "races": {
        "Gig Harbor - 360 Trails - 2023-4-16": 521.7,
        "Ephrata - Riverside State Park - 2023-4-30": 212.2,
        "Spokane - Riverside State Park - 2023-5-14": 310.5,
        "Winthrop - Liberty Bell High School - 2023-6-04": 454.0,
        "Bellingham - Galbraith - 2023-6-11": 626.4,
        "Port Gamble - Port Gamble (Race + Camping) - 2023-9-17": 592.4,
        "Wenatchee - Squilchuck State Park - 2023-10-08": 301.8,
        "Spokane - Riverside State Park - 2024-4-14": 310.5,
        "Winthrop - Liberty Bell High School - 2024-4-28": 454.0,
        "Cle Elum - Flying Horseshoe Ranch (Relay) - 2024-5-05": 299.5,
        "Gig Harbor - 360 Trails - 2024-5-19": 521.7,
        "Wenatchee - Squilchuck State Park - 2024-6-02": 301.8,
        "Cle Elum - Roslyn High School - 2024-9-29": 295.5,
        "Gig Harbor - 360 Trails - 2024-10-13": 521.7,
        "Lakewood - Fort Steilacoom - 2025-4-13": 502.2,
        "Cle Elum - Roslyn High School - 2025-4-27": 295.5,
        "Leavenworth - Ski Hill - 2025-5-4": 335.0,
        "Winthrop - Liberty Bell High School - 2025-5-18": 454.0,
        "Gig Harbor - 360 Trails - 2025-6-1": 521.7,
        "Lakewood - Fort Steilacoom - 2025-9-28": 502.2,
        "Twisp - Loup Loup - 2025-10-12": 418.5
      },
      "total_miles": 8752.8
    },
    "Wenatchee Devo": {
      "races": {
        "Gig Harbor - 360 Trails - 2023-4-16": 451.6,
        "Ephrata - Riverside State Park - 2023-4-30": 107.0,
        "Spokane - Riverside State Park - 2023-5-14": 357.1,
        "Winthrop - Liberty Bell High School - 2023-6-04": 204.0,
        "Bellingham - Galbraith - 2023-6-11": 377.8,
        "Port Gamble - Port Gamble (Race + Camping) - 2023-9-17": 313.5,
        "Wenatchee - Squilchuck State Park - 2023-10-08": 24.2,
        "Spokane - Riverside State Park - 2024-4-14": 357.1,
        "Winthrop - Liberty Bell High School - 2024-4-28": 204.0,
        "Cle Elum - Flying Horseshoe Ranch (Relay) - 2024-5-05": 229.5,
        "Gig Harbor - 360 Trails - 2024-5-19": 451.6,
        "Wenatchee - Squilchuck State Park - 2024-6-02": 24.2,
        "Cle Elum - Roslyn High School - 2024-9-29": 225.5,
        "Gig Harbor - 360 Trails - 2024-10-13": 451.6,
        "Lakewood - Fort Steilacoom - 2025-4-13": 432.1,
        "Cle Elum - Roslyn High School - 2025-4-27": 225.5,
        "Leavenworth - Ski Hill - 2025-5-4": 56.7,
        "Winthrop - Liberty Bell High School - 2025-5-18": 204.0,
        "Gig Harbor - 360 Trails - 2025-6-1": 451.6,
        "Lakewood - Fort Steilacoom - 2025-9-28": 432.1,
        "Twisp - Loup Loup - 2025-10-12": 208.1
      },
      "total_miles": 5788.8
    },
    "Yakima": {
      "races": {
        "Gig Harbor - 360 Trails - 2023-4-16": 372.8,
        "Ephrata - Riverside State Park - 2023-4-30": 212.8,
        "Spokane - Riverside State Park - 2023-5-14": 438.0,
        "Winthrop - Liberty Bell High School - 2023-6-04": 439.9,
        "Bellingham - Galbraith - 2023-6-11": 477.5,
        "Port Gamble - Port Gamble (Race + Camping) - 2023-9-17": 443.5,
        "Wenatchee - Squilchuck State Park - 2023-10-08": 266.2,
        "Spokane - Riverside State Park - 2024-4-14": 438.0,
        "Winthrop - Liberty Bell High School - 2024-4-28": 439.9,
        "Cle Elum - Flying Horseshoe Ranch (Relay) - 2024-5-05": 150.7,
        "Gig Harbor - 360 Trails - 2024-5-19": 372.8,
        "Wenatchee - Squilchuck State Park - 2024-6-02": 266.2,
        "Cle Elum - Roslyn High School - 2024-9-29": 146.7,
        "Gig Harbor - 360 Trails - 2024-10-13": 372.8,
        "Lakewood - Fort Steilacoom - 2025-4-13": 353.3,
        "Cle Elum - Roslyn High School - 2025-4-27": 146.7,
        "Leavenworth - Ski Hill - 2025-5-4": 299.5,
        "Winthrop - Liberty Bell High School - 2025-5-18": 439.9,
        "Gig Harbor - 360 Trails - 2025-6-1": 372.8,
        "Lakewood - Fort Steilacoom - 2025-9-28": 353.3,
        "Twisp - Loup Loup - 2025-10-12": 420.2
      },
      "total_miles": 7223.5
    }
  },
  "metadata": {
    "generated_at": "2025-09-29 20:45:13",
    "total_teams": 28,
    "total_races": 21
  }
}